[
    {
        "name":"Uncle Dean's Good Groc",
        "address":"80 Grove Street",
        "city":"Waterville",
        "state":"ME",
        "zipcode":"4901",
        "lat":"44.538185",
        "lng":"-69.642014",
        "phone":"207-873-6231",
        "distance":null,
        "d_source":"KEHE",
        "total_sales":"6",
        "skus":"Apple"
        },
    {"name":"Lee's Supermarket","address":"796 Main Street","city":"Westport","state":"MA","zipcode":"2790","lat":"41.580517","lng":"-71.089378","phone":"508-636-3348","distance":null,"d_source":"KEHE","total_sales":"36","skus":"Apple,Banana"},
    {"name":"Lori's Natural Food Ctr","address":"900 Jefferson Rd","city":"Rochester","state":"NY","zipcode":"14623","lat":"43.090054","lng":"-77.614006","phone":"","distance":null,"d_source":"KEHE","total_sales":"12","skus":"Apple"},
    {"name":"Better Thymes","address":"417 South Street","city":"Front Royal","state":"VA","zipcode":"22630","lat":"38.911419","lng":"-78.187927","phone":"540-636-9209","distance":null,"d_source":"KEHE","total_sales":"12","skus":"Apple,Banana"},
    {"name":"Belmont Market","address":"600 Kingstown Road","city":"Wakefield","state":"RI","zipcode":"2879","lat":"41.441399","lng":"-71.488541","phone":"401-783-4656","distance":null,"d_source":"KEHE","total_sales":"6","skus":"Cranberry"},
    {"name":"Bath Natural Market","address":"36 Centre Street","city":"Bath","state":"ME","zipcode":"4530","lat":"43.912495","lng":"-69.815125","phone":"207-442-8012","distance":null,"d_source":"KEHE","total_sales":"6","skus":"Apple"},
    {"name":"Mama Jeans Nat Fds Mkt #1","address":"1727 S Campbell","city":"Springfield","state":"MO","zipcode":"65807","lat":"37.184135","lng":"-93.295486","phone":"417-831-5188","distance":null,"d_source":"KEHE","total_sales":"6","skus":"Apple"},
    {"name":"Broad Branch Market Llc","address":"5608 Broad Branch Road Nw","city":"Washington","state":"DC","zipcode":"20015","lat":"38.965687","lng":"-77.068520","phone":"202-249-8551","distance":null,"d_source":"KEHE","total_sales":"12","skus":"Apple"},
    {"name":"Balduccis Scarsdale","address":"15 Palmer Road","city":"Scarsdale","state":"NY","zipcode":"10583","lat":"40.984867","lng":"-73.774292","phone":"914-722-0200","distance":null,"d_source":"KEHE","total_sales":"6","skus":"Apple"},
    {"name":"Balduccis Greenwich","address":"1050 East Putnam Avenue","city":"Greenwich","state":"CT","zipcode":"6878","lat":"41.041573","lng":"-73.586647","phone":"203-637-7600","distance":null,"d_source":"KEHE","total_sales":"12","skus":"Apple,Banana"},
    {"name":"Basil Bandwagon Flemington","address":"276 Hwy 202-31 Store 1","city":"Flemington","state":"NJ","zipcode":"8822","lat":"40.498440","lng":"-74.856438","phone":"908-788-5737","distance":null,"d_source":"KEHE","total_sales":"18","skus":"Apple,Banana"},
    {"name":"Betterhealth Market Of Novi","address":"42875 Grand River Ave","city":"Novi","state":"MI","zipcode":"48375","lat":"42.477901","lng":"-83.468811","phone":"248-735-8100","distance":null,"d_source":"KEHE","total_sales":"12","skus":"Apple"},
    {"name":"Rory's Market","address":"640 Main Street","city":"Dennisport","state":"MA","zipcode":"2639","lat":"41.666878","lng":"-70.158897","phone":"508-760-3043","distance":null,"d_source":"KEHE","total_sales":"18","skus":"Apple,Banana"},
    {"name":"Fruitful Yield Bloomingdle","address":"154 S Bloomingdale Rd.","city":"Bloomingdale","state":"IL","zipcode":"60108","lat":"41.952557","lng":"-88.080940","phone":"630-894-2553","distance":null,"d_source":"KEHE","total_sales":"6","skus":"Apple"},
    {"name":"Fruitful Yield South Elgin","address":"360 Randall Rd","city":"South Elgin","state":"IL","zipcode":"60177","lat":"41.986568","lng":"-88.340820","phone":"847-888-0100","distance":null,"d_source":"KEHE","total_sales":"6","skus":"Apple"},
    {"name":"Fruitful Yield Elmhurst","address":"135 N Addison Ste F","city":"Elmhurst","state":"IL","zipcode":"60186","lat":"41.901344","lng":"-87.941193","phone":"630-530-1445","distance":null,"d_source":"KEHE","total_sales":"1","skus":"Apple"},
    {"name":"Fruitful Yield Lombard","address":"229 W. Roosevelt Rd","city":"Lombard","state":"IL","zipcode":"60148","lat":"41.859970","lng":"-88.020912","phone":"630-629-9242","distance":null,"d_source":"KEHE","total_sales":"4","skus":"Apple"},
    {"name":"Green Life Market","address":"66 Morris Street","city":"Morristown","state":"NJ","zipcode":"7960","lat":"40.798363","lng":"-74.477226","phone":"","distance":null,"d_source":"KEHE","total_sales":"6","skus":"Banana"},
    {"name":"Nature's Pantry","address":"2331 Commercial Boulevard","city":"State College","state":"PA","zipcode":"16801","lat":"40.824833","lng":"-77.812874","phone":"814-861-5200","distance":null,"d_source":"KEHE","total_sales":"6","skus":"Apple"},
    {"name":"Cornucopia Natural Foods","address":"39 North Main Street","city":"Sayville","state":"NY","zipcode":"11782","lat":"40.735859","lng":"-73.082832","phone":"631-589-9579","distance":null,"d_source":"KEHE","total_sales":"6","skus":"Banana"},
    {"name":"Rainbow Blossom Natural Markets, Lexington #2","address":"3738 Lexington Road","city":"Louisville","state":"KY","zipcode":"40207","lat":"38.252102","lng":"-85.659119","phone":"","distance":null,"d_source":"KEHE","total_sales":"6","skus":"Apple"},
    {"name":"Chestertown Natural Foods","address":"303 Cannon Street","city":"Chestertown","state":"MD","zipcode":"21620","lat":"39.208447","lng":"-76.067528","phone":"410-778-1677","distance":null,"d_source":"KEHE","total_sales":"12","skus":"Banana"},
    {"name":"Healthfair","address":"625 Branch Avenue","city":"Little Silver","state":"NJ","zipcode":"7739","lat":"40.328663","lng":"-74.043388","phone":"732-747-3140","distance":null,"d_source":"KEHE","total_sales":"6","skus":"Banana"},
    {"name":"Mom's Organic Market Bowie","address":"6824 Race Track Rd","city":"Bowie","state":"MD","zipcode":"20715","lat":"38.983501","lng":"-76.729019","phone":"240-556-1700","distance":null,"d_source":"KEHE","total_sales":"6","skus":"Apple"},
    {"name":"Natural Food","address":"72-56 Austin Street","city":"Forest Hills","state":"NY","zipcode":"11375","lat":"40.718513","lng":"-73.840874","phone":"718-268-4477","distance":null,"d_source":"KEHE","total_sales":"6","skus":"Apple"},
    {"name":"New Morning Natural Foods","address":"3 York Street","city":"Kennebunk","state":"ME","zipcode":"4043","lat":"43.384239","lng":"-70.544052","phone":"207-985-6774","distance":null,"d_source":"KEHE","total_sales":"6","skus":"Apple"},
    {"name":"Safeway #2912","address":"1855 Wisconsin Ave. Nw","city":"Washington","state":"DC","zipcode":"20007","lat":"38.915951","lng":"-77.067390","phone":"202-333-3223","distance":null,"d_source":"KEHE","total_sales":"30","skus":"Apple,Banana"},
    {"name":"Peach Basket","address":"334 W Main","city":"Fredericksburg","state":"TX","zipcode":"78624","lat":"30.278584","lng":"-98.876823","phone":"830-997-4533","distance":null,"d_source":"KEHE","total_sales":"6","skus":"Apple"},
    {"name":"Albertsons Market #4687","address":"808 N Canal","city":"Carlsbad","state":"NM","zipcode":"88220","lat":"32.429382","lng":"-104.228134","phone":"575-887-5085","distance":null,"d_source":"KEHE","total_sales":"12","skus":"Banana"},
    {"name":"Central Market San Antonio","address":"4821 Broadway","city":"San Antonio","state":"TX","zipcode":"78209","lat":"29.470615","lng":"-98.464325","phone":"210-368-8600","distance":null,"d_source":"KEHE","total_sales":"72","skus":"Apple,Banana,Cranberry"},
    {"name":"Central Market Houston","address":"3815 Westheimer","city":"Houston","state":"TX","zipcode":"77027","lat":"29.741076","lng":"-95.443375","phone":"713-386-1700","distance":null,"d_source":"KEHE","total_sales":"90","skus":"Apple,Banana,Cranberry"},
    {"name":"Central Market Ft Worth","address":"4651 West Freeway","city":"Fort Worth","state":"TX","zipcode":"76107","lat":"32.729862","lng":"-97.388802","phone":"817-989-4700","distance":null,"d_source":"KEHE","total_sales":"72","skus":"Apple,Banana,Cranberry"},
    {"name":"Central Market Plano","address":"320 Coit Road","city":"Plano","state":"TX","zipcode":"75075","lat":"33.002419","lng":"-96.767677","phone":"469-241-8300","distance":null,"d_source":"KEHE","total_sales":"30","skus":"Apple,Cranberry"},
    {"name":"Central Market Dallas","address":"5750 East Lovers Lane","city":"Dallas","state":"TX","zipcode":"75206","lat":"32.850864","lng":"-96.768547","phone":"214-234-7000","distance":null,"d_source":"KEHE","total_sales":"138","skus":"Apple,Banana,Cherry,Cranberry"},
    {"name":"Central Market Southlake","address":"1425 E Southlake Blvd","city":"Southlake","state":"TX","zipcode":"76092","lat":"32.941048","lng":"-97.130234","phone":"817-310-5600","distance":null,"d_source":"KEHE","total_sales":"72","skus":"Apple,Banana,Cranberry"},
    {"name":"Down To Earth - Kapolei","address":"4460 Kapolei Parkway Ste 320","city":"Kapolei, Oahu","state":"HI","zipcode":"96707","lat":"21.329279","lng":"-158.093124","phone":"808-675-2300","distance":null,"d_source":"KEHE","total_sales":"6","skus":"Banana"},
    {"name":"Fresh Organics Cornucopia","address":"26135 Carmel Rancho Blvd","city":"Carmel By The Sea","state":"CA","zipcode":"93923","lat":"36.542900","lng":"-121.904282","phone":"831-625-1454","distance":null,"d_source":"KEHE","total_sales":"12","skus":"Apple,Cranberry"}
]